{"class":"VERSION","release":"3.4","rev":"3.4","proto_major":3,"proto_minor":6}
{"class":"DEVICES","devices":[{"class":"DEVICE","path":"/dev/ttyUSB0","activated":"2014-04-08T17:01:56.482Z","flags":1,"driver":"SiRF binary","subtype":"GSW3.5.0_3.5.00.00-SDK-3EP2.01 ","native":1,"bps":4800,"parity":"N","stopbits":1,"cycle":1.00}]}
{"class":"WATCH","enable":true,"json":false,"nmea":true,"raw":0,"scaled":false,"timing":false}
$GPZDA,170123.00,08,04,2014,00,00*6B
$GPGGA,170123,3850.9767,N,10449.3595,W,1,09,1.00,1868.30,M,-21.660,M,,*47
$GPRMC,170123,A,3850.9767,N,10449.3595,W,0.0000,0.000,080414,,*33
$GPGSA,A,3,01,32,11,31,22,14,25,20,12,,,,2.0,1.0,1.7*36
$GPGSV,3,1,09,01,38,285,38,32,62,316,37,11,27,253,35,31,74,174,40*79
$GPGSV,3,2,09,14,40,057,37,22,28,127,37,25,23,069,33,12,07,036,21*77
$GPGSV,3,3,09,20,22,309,37*4C
$GPZDA,170124.00,08,04,2014,00,00*6C
$GPGGA,170124,3850.9770,N,10449.3597,W,1,09,1.00,1867.55,M,-21.660,M,,*48
$GPRMC,170124,A,3850.9770,N,10449.3597,W,0.1892,180.000,080414,,*3B
$GPGSA,A,3,01,32,11,31,22,14,25,20,12,,,,1.8,1.0,1.5*3F
$GPZDA,170125.00,08,04,2014,00,00*6D
$GPGGA,170125,3850.9770,N,10449.3597,W,1,09,1.00,1867.55,M,-21.660,M,,*49
$GPRMC,170125,A,3850.9770,N,10449.3597,W,0.0000,0.000,080414,,*31
$GPGSA,A,3,01,32,11,31,22,14,25,20,12,,,,1.8,1.0,1.5*3F
$GPZDA,170126.00,08,04,2014,00,00*6E
$GPGGA,170126,3850.9770,N,10449.3597,W,1,09,1.00,1867.55,M,-21.660,M,,*4A
$GPRMC,170126,A,3850.9770,N,10449.3597,W,0.1599,337.126,080414,,*34
$GPGSA,A,3,01,32,11,31,22,14,25,20,12,,,,1.8,1.0,1.5*3F
$GPGSV,3,1,09,01,38,285,38,32,62,316,37,11,27,253,36,31,74,174,40*7A
$GPGSV,3,2,09,14,40,057,35,22,28,127,30,25,23,069,26,12,07,036,20*77
$GPGSV,3,3,09,20,22,309,29*43
$GPZDA,170127.00,08,04,2014,00,00*6F
$GPGGA,170127,3850.9774,N,10449.3599,W,1,09,1.00,1866.80,M,-21.660,M,,*48
$GPRMC,170127,A,3850.9774,N,10449.3599,W,0.6596,31.584,080414,,*0E
$GPGSA,A,3,01,32,11,31,22,14,25,20,12,,,,1.8,1.0,1.5*3F
$GPZDA,170128.00,08,04,2014,00,00*60
$GPGGA,170128,3850.9774,N,10449.3599,W,1,09,1.00,1866.80,M,-21.660,M,,*47
$GPRMC,170128,A,3850.9774,N,10449.3599,W,0.5718,321.084,080414,,*31
$GPGSA,A,3,01,32,11,31,22,14,25,20,12,,,,1.8,1.0,1.5*3F
$GPZDA,170129.00,08,04,2014,00,00*61
$GPGGA,170129,3850.9777,N,10449.3601,W,1,09,1.00,1866.05,M,-21.660,M,,*4A
$GPRMC,170129,A,3850.9777,N,10449.3601,W,1.3939,339.702,080414,,*3B
$GPGSA,A,3,01,32,11,31,22,14,25,20,12,,,,1.8,1.0,1.5*3F
$GPGSV,3,1,09,01,38,285,38,32,62,316,37,11,27,253,35,31,74,174,40*79
$GPGSV,3,2,09,14,40,057,33,22,28,127,34,25,23,069,27,12,07,036,20*74
$GPGSV,3,3,09,20,22,309,32*49
$GPZDA,170130.00,08,04,2014,00,00*69
$GPGGA,170130,3850.9784,N,10449.3602,W,1,09,1.00,1865.92,M,-21.660,M,,*40
$GPRMC,170130,A,3850.9784,N,10449.3602,W,1.5536,339.437,080414,,*3C
$GPGSA,A,3,01,32,11,31,22,14,25,20,12,,,,1.8,1.0,1.5*3F
$GPZDA,170131.00,08,04,2014,00,00*68
$GPGGA,170131,3850.9789,N,10449.3602,W,1,09,1.00,1866.55,M,-21.660,M,,*44
$GPRMC,170131,A,3850.9789,N,10449.3602,W,2.0536,349.536,080414,,*31
$GPGSA,A,3,01,32,11,31,22,14,25,20,12,,,,1.8,1.0,1.5*3F
$GPZDA,170132.00,08,04,2014,00,00*6B
$GPGGA,170132,3850.9792,N,10449.3604,W,1,09,1.00,1865.80,M,-21.660,M,,*40
$GPRMC,170132,A,3850.9792,N,10449.3604,W,1.8977,350.574,080414,,*32
$GPGSA,A,3,01,32,11,31,22,14,25,20,12,,,,1.8,1.0,1.5*3F
$GPGSV,3,1,09,01,38,285,37,32,62,316,37,11,27,253,34,31,74,174,39*79
$GPGSV,3,2,09,14,40,057,34,22,28,127,35,25,23,069,34,12,07,036,20*70
$GPGSV,3,3,09,20,22,309,28*42
$GPZDA,170133.00,08,04,2014,00,00*6A
$GPGGA,170133,3850.9800,N,10449.3599,W,1,09,1.00,1865.47,M,-21.660,M,,*49
$GPRMC,170133,A,3850.9800,N,10449.3599,W,1.9566,4.661,080414,,*38
$GPGSA,A,3,01,32,11,31,22,14,25,20,12,,,,1.8,1.0,1.5*3F
$GPZDA,170134.00,08,04,2014,00,00*6D
$GPGGA,170134,3850.9808,N,10449.3601,W,1,09,1.00,1865.34,M,-21.660,M,,*40
$GPRMC,170134,A,3850.9808,N,10449.3601,W,1.8163,6.994,080414,,*32
$GPGSA,A,3,01,32,11,31,22,14,25,20,12,,,,1.8,1.0,1.5*3F
$GPZDA,170135.00,08,04,2014,00,00*6C
$GPGGA,170135,3850.9815,N,10449.3603,W,1,09,1.00,1865.22,M,-21.660,M,,*48
$GPRMC,170135,A,3850.9815,N,10449.3603,W,2.2136,10.249,080414,,*08
$GPGSA,A,3,01,32,11,31,22,14,25,20,12,,,,1.8,1.0,1.5*3F
$GPGSV,3,1,09,01,38,285,37,32,62,316,37,11,27,253,34,31,74,174,39*79
$GPGSV,3,2,09,14,40,057,34,22,28,127,35,25,23,069,34,12,07,036,29*79
$GPGSV,3,3,09,20,22,309,30*4B
$GPZDA,170136.00,08,04,2014,00,00*6F
$GPGGA,170136,3850.9823,N,10449.3605,W,1,09,1.00,1865.09,M,-21.660,M,,*41
$GPRMC,170136,A,3850.9823,N,10449.3605,W,2.5367,7.514,080414,,*30
$GPGSA,A,3,01,32,11,31,22,14,25,20,12,,,,1.8,1.0,1.5*3F
$GPZDA,170137.00,08,04,2014,00,00*6E
$GPGGA,170137,3850.9831,N,10449.3600,W,1,09,1.00,1864.77,M,-21.660,M,,*4E
$GPRMC,170137,A,3850.9831,N,10449.3600,W,2.6160,12.509,080414,,*09
$GPGSA,A,3,01,32,11,31,22,14,25,20,12,,,,1.8,1.0,1.5*3F
$GPZDA,170138.00,08,04,2014,00,00*61
$GPGGA,170138,3850.9831,N,10449.3600,W,1,09,1.00,1864.77,M,-21.660,M,,*41
$GPRMC,170138,A,3850.9831,N,10449.3600,W,2.2136,10.249,080414,,*00
$GPGSA,A,3,01,32,11,31,22,14,25,20,12,,,,1.8,1.0,1.5*3F
$GPGSV,3,1,09,01,38,285,36,32,62,316,38,11,27,253,34,31,74,174,39*77
$GPGSV,3,2,09,14,40,057,35,22,28,127,35,25,23,069,34,12,07,036,23*72
$GPGSV,3,3,09,20,22,309,31*4A
$GPZDA,170139.00,08,04,2014,00,00*60
$GPGGA,170139,3850.9839,N,10449.3595,W,1,09,1.00,1864.44,M,-21.660,M,,*47
$GPRMC,170139,A,3850.9839,N,10449.3595,W,2.3492,8.118,080414,,*32
$GPGSA,A,3,01,32,11,31,22,14,25,20,12,,,,1.8,1.0,1.5*3F
$GPZDA,170140.00,08,04,2014,00,00*6E
$GPGGA,170140,3850.9847,N,10449.3596,W,1,09,1.00,1864.32,M,-21.660,M,,*42
$GPRMC,170140,A,3850.9847,N,10449.3596,W,2.2887,2.425,080414,,*3E
$GPGSA,A,3,01,32,11,31,22,14,25,20,12,,,,1.8,1.0,1.5*3F
$GPGBS,170140,7.77,M,13.12,M,34.76,M*3D
$GPZDA,170141.00,08,04,2014,00,00*6F
$GPGGA,170141,3850.9854,N,10449.3598,W,1,09,1.00,1864.19,M,-21.660,M,,*46
$GPRMC,170141,A,3850.9854,N,10449.3598,W,2.4408,356.757,080414,,*3A
$GPGSA,A,3,01,32,11,31,22,14,25,20,12,,,,1.8,1.0,1.5*3F
$GPGBS,170141,7.77,M,13.12,M,34.76,M*3C
$GPGSV,3,1,09,01,38,285,36,32,62,316,38,11,26,253,35,31,74,172,39*71
$GPGSV,3,2,09,14,40,057,35,22,27,127,35,25,23,069,34,12,07,036,33*7C
$GPGSV,3,3,09,20,23,309,31*4B
$GPZDA,170142.00,08,04,2014,00,00*6C
$GPGGA,170142,3850.9862,N,10449.3600,W,1,09,1.00,1864.07,M,-21.660,M,,*4D
$GPRMC,170142,A,3850.9862,N,10449.3600,W,2.2887,2.425,080414,,*37
$GPGSA,A,3,01,32,11,31,22,14,25,20,12,,,,1.8,1.0,1.5*3F
$GPZDA,170143.00,08,04,2014,00,00*6D
$GPGGA,170143,3850.9870,N,10449.3595,W,1,09,1.00,1863.74,M,-21.660,M,,*43
$GPRMC,170143,A,3850.9870,N,10449.3595,W,2.2887,2.425,080414,,*3A
$GPGSA,A,3,01,32,11,31,22,14,25,20,12,,,,1.8,1.0,1.5*3F
$GPZDA,170144.00,08,04,2014,00,00*6A
$GPGGA,170144,3850.9878,N,10449.3597,W,1,09,1.00,1863.62,M,-21.660,M,,*49
$GPRMC,170144,A,3850.9878,N,10449.3597,W,2.2136,10.249,080414,,*0B
$GPGSA,A,3,01,32,11,31,22,14,25,20,12,,,,1.8,1.0,1.5*3F
$GPGSV,3,1,09,01,38,285,36,32,62,316,34,11,26,253,34,31,74,172,38*7D
$GPGSV,3,2,09,14,40,057,33,22,27,127,35,25,23,069,34,12,07,036,30*79
$GPGSV,3,3,09,20,23,309,31*4B
$GPZDA,170145.00,08,04,2014,00,00*6B
$GPGGA,170145,3850.9885,N,10449.3599,W,1,09,1.00,1863.49,M,-21.660,M,,*4D
$GPRMC,170145,A,3850.9885,N,10449.3599,W,2.1452,4.250,080414,,*3F
$GPGSA,A,3,01,32,11,31,22,14,25,20,12,,,,1.8,1.0,1.5*3F
$GPZDA,170146.00,08,04,2014,00,00*68
$GPGGA,170146,3850.9886,N,10449.3592,W,1,09,1.00,1863.29,M,-21.660,M,,*40
$GPRMC,170146,A,3850.9886,N,10449.3592,W,1.6286,7.804,080414,,*37
$GPGSA,A,3,01,32,11,31,22,14,25,20,12,,,,1.8,1.0,1.5*3F
$GPGBS,170146,7.76,M,12.93,M,34.31,M*31
$GPZDA,170147.00,08,04,2014,00,00*69
$GPGGA,170147,3850.9889,N,10449.3594,W,1,09,1.00,1862.54,M,-21.660,M,,*43
$GPRMC,170147,A,3850.9889,N,10449.3594,W,0.5906,17.005,080414,,*06
$GPGSA,A,3,01,32,11,31,22,14,25,20,12,,,,1.8,1.0,1.5*3F
$GPGBS,170147,7.76,M,12.93,M,34.31,M*30
$GPGSV,3,1,09,01,38,285,32,32,62,316,35,11,26,253,34,31,75,172,38*79
$GPGSV,3,2,09,14,40,057,36,22,27,127,34,25,23,069,38,12,07,036,21*71
$GPGSV,3,3,09,20,23,309,31*4B
$GPZDA,170148.00,08,04,2014,00,00*66
$GPGGA,170148,3850.9889,N,10449.3594,W,1,09,1.00,1862.54,M,-21.660,M,,*4C
$GPRMC,170148,A,3850.9889,N,10449.3594,W,0.3162,110.040,080414,,*32
$GPGSA,A,3,01,32,11,31,22,14,25,20,12,,,,1.8,1.0,1.5*3F
$GPZDA,170149.00,08,04,2014,00,00*67
$GPGGA,170149,3850.9889,N,10449.3594,W,1,09,1.00,1862.54,M,-21.660,M,,*4D
$GPRMC,170149,A,3850.9889,N,10449.3594,W,0.9983,123.857,080414,,*30
$GPGSA,A,3,01,32,11,31,22,14,25,20,12,,,,1.8,1.0,1.5*3F
$GPZDA,170150.00,08,04,2014,00,00*6F
$GPGGA,170150,3850.9890,N,10449.3587,W,1,09,1.00,1862.34,M,-21.660,M,,*49
$GPRMC,170150,A,3850.9890,N,10449.3587,W,1.5349,132.807,080414,,*36
$GPGSA,A,3,01,32,11,31,22,14,25,20,12,,,,1.8,1.0,1.5*3F
$GPGSV,3,1,09,01,38,285,35,32,62,316,35,11,26,253,35,31,75,172,35*72
$GPGSV,3,2,09,14,40,057,26,22,27,127,34,25,23,069,27,12,07,036,25*7A
$GPGSV,3,3,09,20,23,309,29*42
$GPZDA,170151.00,08,04,2014,00,00*6E
$GPGGA,170151,3850.9884,N,10449.3579,W,1,09,1.00,1862.27,M,-21.660,M,,*4E
$GPRMC,170151,A,3850.9884,N,10449.3579,W,1.4978,114.685,080414,,*3A
$GPGSA,A,3,01,32,11,31,22,14,25,20,12,,,,1.8,1.0,1.5*3F
$GPZDA,170152.00,08,04,2014,00,00*6D
$GPGGA,170152,3850.9884,N,10449.3579,W,1,09,1.00,1862.27,M,-21.660,M,,*4D
$GPRMC,170152,A,3850.9884,N,10449.3579,W,2.2708,128.289,080414,,*32
$GPGSA,A,3,01,32,11,31,22,14,25,20,12,,,,1.8,1.0,1.5*3F
$GPZDA,170153.00,08,04,2014,00,00*6C
$GPGGA,170153,3850.9877,N,10449.3570,W,1,09,1.00,1862.19,M,-21.660,M,,*44
$GPRMC,170153,A,3850.9877,N,10449.3570,W,2.5382,133.390,080414,,*34
$GPGSA,A,3,01,32,11,31,22,14,25,20,12,,,,1.8,1.0,1.5*3F
$GPGSV,3,1,09,01,38,285,35,32,62,316,37,11,26,253,34,31,75,172,38*7C
$GPGSV,3,2,09,14,40,057,35,22,27,127,36,25,23,069,33,12,07,036,28*72
$GPGSV,3,3,09,20,23,309,36*4C
$GPZDA,170154.00,08,04,2014,00,00*6B
$GPGGA,170154,3850.9870,N,10449.3562,W,1,09,1.00,1862.12,M,-21.660,M,,*4C
$GPRMC,170154,A,3850.9870,N,10449.3562,W,2.9641,139.965,080414,,*3B
$GPGSA,A,3,01,32,11,31,22,14,25,20,12,,,,1.8,1.0,1.5*3F
$GPZDA,170155.00,08,04,2014,00,00*6A
$GPGGA,170155,3850.9871,N,10449.3555,W,1,09,1.00,1861.92,M,-21.660,M,,*43
$GPRMC,170155,A,3850.9871,N,10449.3555,W,2.8126,132.326,080414,,*3E
$GPGSA,A,3,01,32,11,31,22,14,25,20,12,,,,1.8,1.0,1.5*3F
$GPZDA,170156.00,08,04,2014,00,00*69
$GPGGA,170156,3850.9864,N,10449.3553,W,1,09,1.00,1862.05,M,-21.660,M,,*4F
$GPRMC,170156,A,3850.9864,N,10449.3553,W,2.6717,136.340,080414,,*31
$GPGSA,A,3,01,32,11,31,22,14,25,20,12,,,,1.8,1.0,1.5*3F
$GPGSV,3,1,09,01,38,285,35,32,62,316,37,11,26,253,34,31,75,172,39*7D
$GPGSV,3,2,09,14,40,057,35,22,27,127,37,25,23,069,34,12,07,036,25*79
$GPGSV,3,3,09,20,23,309,35*4F
$GPZDA,170157.00,08,04,2014,00,00*68
$GPGGA,170157,3850.9857,N,10449.3545,W,1,09,1.00,1861.97,M,-21.660,M,,*41
$GPRMC,170157,A,3850.9857,N,10449.3545,W,2.6946,143.321,080414,,*38
$GPGSA,A,3,01,32,11,31,22,14,25,20,12,,,,1.8,1.0,1.5*3F
$GPZDA,170158.00,08,04,2014,00,00*67
$GPGGA,170158,3850.9850,N,10449.3543,W,1,09,1.00,1862.10,M,-21.660,M,,*43
$GPRMC,170158,A,3850.9850,N,10449.3543,W,3.0148,156.504,080414,,*32
$GPGSA,A,3,01,32,11,31,22,14,25,20,12,,,,1.8,1.0,1.5*3F
$GPZDA,170159.00,08,04,2014,00,00*66
$GPGGA,170159,3850.9846,N,10449.3536,W,1,09,1.00,1861.27,M,-21.660,M,,*40
$GPRMC,170159,A,3850.9846,N,10449.3536,W,2.7565,150.086,080414,,*32
$GPGSA,A,3,01,32,11,31,22,14,25,20,12,,,,1.8,1.0,1.5*3F
$GPGSV,3,1,09,01,38,285,34,32,62,316,36,11,26,253,34,31,75,172,39*7D
$GPGSV,3,2,09,14,40,057,36,22,27,127,38,25,23,069,34,12,07,036,20*70
$GPGSV,3,3,09,20,23,309,35*4F
$GPZDA,170200.00,08,04,2014,00,00*69
$GPGGA,170200,3850.9839,N,10449.3535,W,1,09,1.00,1861.40,M,-21.660,M,,*45
$GPRMC,170200,A,3850.9839,N,10449.3535,W,2.6825,154.855,080414,,*3C
$GPGSA,A,3,01,32,11,31,22,14,25,20,12,,,,1.8,1.0,1.5*3F
$GPZDA,170201.00,08,04,2014,00,00*68
$GPGGA,170201,3850.9832,N,10449.3526,W,1,09,1.00,1861.32,M,-21.660,M,,*48
$GPRMC,170201,A,3850.9832,N,10449.3526,W,2.9356,165.557,080414,,*39
$GPGSA,A,3,01,32,11,31,22,14,25,20,12,,,,1.8,1.0,1.5*3F
$GPZDA,170202.00,08,04,2014,00,00*6B
$GPGGA,170202,3850.9825,N,10449.3524,W,1,09,1.00,1861.45,M,-21.660,M,,*4F
$GPRMC,170202,A,3850.9825,N,10449.3524,W,2.7775,166.041,080414,,*34
$GPGSA,A,3,01,32,11,31,22,14,25,20,12,,,,1.8,1.0,1.5*3F
$GPGSV,3,1,09,01,38,285,35,32,62,316,37,11,26,253,34,31,75,172,39*7D
$GPGSV,3,2,09,14,40,057,36,22,27,127,38,25,23,069,34,12,07,036,21*71
$GPGSV,3,3,09,20,23,309,34*4E
$GPZDA,170203.00,08,04,2014,00,00*6A
$GPGGA,170203,3850.9816,N,10449.3524,W,1,09,1.00,1860.19,M,-21.660,M,,*46
$GPRMC,170203,A,3850.9816,N,10449.3524,W,2.7689,170.959,080414,,*30
$GPGSA,A,3,01,32,11,31,22,14,25,20,12,,,,1.8,1.0,1.5*3F
$GPZDA,170204.00,08,04,2014,00,00*6D
$GPGGA,170204,3850.9809,N,10449.3523,W,1,09,1.00,1860.32,M,-21.660,M,,*41
$GPRMC,170204,A,3850.9809,N,10449.3523,W,2.7689,170.959,080414,,*3E
$GPGSA,A,3,01,32,11,31,22,14,25,20,12,,,,1.8,1.0,1.5*3F
$GPZDA,170205.00,08,04,2014,00,00*6C
$GPGGA,170205,3850.9800,N,10449.3528,W,1,09,1.00,1860.64,M,-21.660,M,,*41
$GPRMC,170205,A,3850.9800,N,10449.3528,W,2.6669,182.081,080414,,*33
$GPGSA,A,3,01,32,11,31,22,14,25,20,12,,,,1.8,1.0,1.5*3F
$GPGSV,3,1,09,01,38,285,39,32,62,316,37,11,26,253,35,31,75,172,39*70
$GPGSV,3,2,09,14,40,057,35,22,27,127,37,25,23,069,34,12,07,036,21*7D
$GPGSV,3,3,09,20,23,309,34*4E
$GPZDA,170206.00,08,04,2014,00,00*6F
$GPGGA,170206,3850.9793,N,10449.3526,W,1,09,1.00,1860.77,M,-21.660,M,,*4B
$GPRMC,170206,A,3850.9793,N,10449.3526,W,2.7244,186.994,080414,,*38
$GPGSA,A,3,01,32,11,31,22,14,25,20,12,,,,1.8,1.0,1.5*3F
$GPZDA,170207.00,08,04,2014,00,00*6E
$GPGGA,170207,3850.9789,N,10449.3526,W,1,09,1.00,1860.14,M,-21.660,M,,*44
$GPRMC,170207,A,3850.9789,N,10449.3526,W,2.7244,186.994,080414,,*32
$GPGSA,A,3,01,32,11,31,22,14,25,20,12,,,,1.8,1.0,1.5*3F
$GPZDA,170208.00,08,04,2014,00,00*61
$GPGGA,170208,3850.9780,N,10449.3531,W,1,09,1.00,1860.47,M,-21.660,M,,*42
$GPRMC,170208,A,3850.9780,N,10449.3531,W,2.7244,186.994,080414,,*32
$GPGSA,A,3,01,32,11,31,22,14,25,20,12,,,,1.8,1.0,1.5*3F
$GPGSV,3,1,09,01,38,285,38,32,62,316,38,11,26,253,36,31,75,172,39*7D
$GPGSV,3,2,09,14,40,057,34,22,27,127,32,25,23,069,34,12,07,036,20*78
$GPGSV,3,3,09,20,23,309,34*4E
$GPZDA,170209.00,08,04,2014,00,00*60
$GPGGA,170209,3850.9769,N,10449.3529,W,1,09,1.00,1859.97,M,-21.660,M,,*4A
$GPRMC,170209,A,3850.9769,N,10449.3529,W,2.9123,186.540,080414,,*34
$GPGSA,A,3,01,32,11,31,22,14,25,20,12,,,,1.8,1.0,1.5*3F
$GPZDA,170210.00,08,04,2014,00,00*68
$GPGGA,170210,3850.9764,N,10449.3536,W,1,09,1.00,1859.54,M,-21.660,M,,*4E
$GPRMC,170210,A,3850.9764,N,10449.3536,W,2.8907,202.336,080414,,*38
$GPGSA,A,3,01,32,11,31,22,14,25,20,12,,,,1.8,1.0,1.5*3F
$GPGBS,170210,7.76,M,12.96,M,34.11,M*36
$GPZDA,170211.00,08,04,2014,00,00*69
$GPGGA,170211,3850.9755,N,10449.3540,W,1,09,1.00,1859.86,M,-21.660,M,,*43
$GPRMC,170211,A,3850.9755,N,10449.3540,W,2.6095,206.411,080414,,*30
$GPGSA,A,3,01,32,11,31,22,14,25,20,12,,,,1.8,1.0,1.5*3F
$GPGBS,170211,7.76,M,12.96,M,34.11,M*37
$GPGSV,3,1,09,01,38,285,37,32,62,316,38,11,26,253,36,31,75,172,38*73
$GPGSV,3,2,09,14,39,057,34,22,27,127,38,25,23,069,34,12,07,036,20*7C
$GPGSV,3,3,09,20,23,309,34*4E
$GPZDA,170212.00,08,04,2014,00,00*6A
$GPGGA,170212,3850.9751,N,10449.3540,W,1,09,1.00,1859.24,M,-21.660,M,,*4C
$GPRMC,170212,A,3850.9751,N,10449.3540,W,2.7557,210.427,080414,,*3F
$GPGSA,A,3,01,32,11,31,22,14,25,20,12,,,,1.8,1.0,1.5*3F
$GPZDA,170213.00,08,04,2014,00,00*6B
$GPGGA,170213,3850.9743,N,10449.3545,W,1,09,1.00,1859.56,M,-21.660,M,,*4E
$GPRMC,170213,A,3850.9743,N,10449.3545,W,2.7557,210.427,080414,,*38
$GPGSA,A,3,01,32,11,31,22,14,25,20,12,,,,1.8,1.0,1.5*3F
$GPZDA,170214.00,08,04,2014,00,00*6C
$GPGGA,170214,3850.9738,N,10449.3552,W,1,09,1.00,1859.13,M,-21.660,M,,*42
$GPRMC,170214,A,3850.9738,N,10449.3552,W,2.6806,219.157,080414,,*36
$GPGSA,A,3,01,32,11,31,22,14,25,20,12,,,,1.8,1.0,1.5*3F
$GPGSV,3,1,09,01,38,285,37,32,62,316,37,11,26,253,36,31,75,172,38*7C
$GPGSV,3,2,09,14,39,057,35,22,27,127,38,25,23,069,34,12,07,036,24*79
$GPGSV,3,3,09,20,23,309,33*49
$GPZDA,170215.00,08,04,2014,00,00*6D
$GPGGA,170215,3850.9737,N,10449.3559,W,1,09,1.00,1859.33,M,-21.660,M,,*45
$GPRMC,170215,A,3850.9737,N,10449.3559,W,2.6704,228.168,080414,,*30
$GPGSA,A,3,01,32,11,31,22,14,25,20,12,,,,1.8,1.0,1.5*3F
$GPZDA,170216.00,08,04,2014,00,00*6E
$GPGGA,170216,3850.9731,N,10449.3572,W,1,09,1.00,1859.10,M,-21.660,M,,*48
$GPRMC,170216,A,3850.9731,N,10449.3572,W,2.9456,238.879,080414,,*3F
$GPGSA,A,3,01,32,11,31,22,14,25,20,12,,,,1.8,1.0,1.5*3F
$GPGBS,170216,7.76,M,12.97,M,34.27,M*34
$GPZDA,170217.00,08,04,2014,00,00*6F
$GPGGA,170217,3850.9730,N,10449.3579,W,1,09,1.00,1859.30,M,-21.660,M,,*41
$GPRMC,170217,A,3850.9730,N,10449.3579,W,2.5436,251.425,080414,,*34
$GPGSA,A,3,01,32,11,31,22,14,25,20,12,,,,1.8,1.0,1.5*3F
$GPGBS,170217,7.76,M,12.97,M,34.27,M*35
$GPGSV,3,1,09,01,38,285,38,32,62,316,37,11,26,253,36,31,75,172,38*73
$GPGSV,3,2,09,14,39,058,36,22,27,127,38,25,23,069,34,12,07,036,23*72
$GPGSV,3,3,09,20,23,309,34*4E
$GPZDA,170218.00,08,04,2014,00,00*60
$GPGGA,170218,3850.9725,N,10449.3585,W,1,09,1.00,1858.87,M,-21.660,M,,*44
$GPRMC,170218,A,3850.9725,N,10449.3585,W,2.2527,255.026,080414,,*39
$GPGSA,A,3,01,32,11,31,22,14,25,20,12,,,,1.8,1.0,1.5*3F
$GPZDA,170219.00,08,04,2014,00,00*61
$GPGGA,170219,3850.9724,N,10449.3592,W,1,09,1.00,1859.07,M,-21.660,M,,*4B
$GPRMC,170219,A,3850.9724,N,10449.3592,W,1.7793,253.543,080414,,*34
$GPGSA,A,3,01,32,11,31,22,14,25,20,12,,,,1.8,1.0,1.5*3F
$GPZDA,170220.00,08,04,2014,00,00*6B
$GPGGA,170220,3850.9724,N,10449.3592,W,1,09,1.00,1859.07,M,-21.660,M,,*41
$GPRMC,170220,A,3850.9724,N,10449.3592,W,0.7674,272.268,080414,,*3A
$GPGSA,A,3,01,32,11,31,22,14,25,20,12,,,,1.8,1.0,1.5*3F
$GPGSV,3,1,09,01,38,285,38,32,62,316,37,11,26,253,36,31,75,172,38*73
$GPGSV,3,2,09,14,39,058,37,22,27,127,38,25,23,069,29,12,07,036,23*7F
$GPGSV,3,3,09,20,23,309,34*4E
$GPZDA,170221.00,08,04,2014,00,00*6A
$GPGGA,170221,3850.9731,N,10449.3594,W,1,09,1.00,1858.95,M,-21.660,M,,*48
$GPRMC,170221,A,3850.9731,N,10449.3594,W,1.3691,349.536,080414,,*32
$GPGSA,A,3,01,32,11,31,22,14,25,20,12,,,,1.8,1.0,1.5*3F
$GPZDA,170222.00,08,04,2014,00,00*69
$GPGGA,170222,3850.9734,N,10449.3602,W,1,09,1.00,1858.39,M,-21.660,M,,*44
$GPRMC,170222,A,3850.9734,N,10449.3602,W,1.8977,350.574,080414,,*3A
$GPGSA,A,3,01,32,11,31,22,14,25,20,12,,,,1.8,1.0,1.5*3F
$GPZDA,170223.00,08,04,2014,00,00*68
$GPGGA,170223,3850.9739,N,10449.3596,W,1,09,1.00,1858.82,M,-21.660,M,,*46
$GPRMC,170223,A,3850.9739,N,10449.3596,W,2.2519,356.485,080414,,*3C
$GPGSA,A,3,01,32,11,31,22,14,25,20,12,,,,1.8,1.0,1.5*3F
$GPGSV,3,1,09,01,38,285,34,32,62,316,37,11,26,253,36,31,75,172,38*7F
$GPGSV,3,2,09,14,39,058,37,22,27,127,38,25,23,069,32,12,07,036,20*76
$GPGSV,3,3,09,20,23,309,34*4E
$GPZDA,170224.00,08,04,2014,00,00*6F
$GPGGA,170224,3850.9746,N,10449.3597,W,1,09,1.00,1858.70,M,-21.660,M,,*45
$GPRMC,170224,A,3850.9746,N,10449.3597,W,2.1017,357.930,080414,,*38
$GPGSA,A,3,01,32,11,31,22,14,25,20,12,,,,1.8,1.0,1.5*3F
$GPZDA,170225.00,08,04,2014,00,00*6E
$GPGGA,170225,3850.9754,N,10449.3599,W,1,09,1.00,1858.57,M,-21.660,M,,*4C
$GPRMC,170225,A,3850.9754,N,10449.3599,W,2.5367,7.514,080414,,*38
$GPGSA,A,3,01,32,11,31,22,14,25,20,12,,,,1.8,1.0,1.5*3F
$GPZDA,170226.00,08,04,2014,00,00*6D
$GPGGA,170226,3850.9761,N,10449.3601,W,1,09,1.00,1858.44,M,-21.660,M,,*49
$GPRMC,170226,A,3850.9761,N,10449.3601,W,2.5367,7.514,080414,,*3F
$GPGSA,A,3,01,32,11,31,22,14,25,20,12,,,,1.8,1.0,1.5*3F
$GPGSV,3,1,09,01,38,285,35,32,62,316,37,11,26,253,36,31,75,172,38*7E
$GPGSV,3,2,09,14,39,058,37,22,27,127,35,25,23,069,32,12,07,036,21*7A
$GPGSV,3,3,09,20,23,309,34*4E
$GPZDA,170227.00,08,04,2014,00,00*6C
$GPGGA,170227,3850.9770,N,10449.3596,W,1,09,1.00,1858.12,M,-21.660,M,,*46
$GPRMC,170227,A,3850.9770,N,10449.3596,W,2.6759,5.782,080414,,*36
$GPGSA,A,3,01,32,11,31,22,14,25,20,12,,,,1.8,1.0,1.5*3F
$GPZDA,170228.00,08,04,2014,00,00*63
$GPGGA,170228,3850.9777,N,10449.3598,W,1,09,1.00,1857.99,M,-21.660,M,,*4C
$GPRMC,170228,A,3850.9777,N,10449.3598,W,2.3492,8.118,080414,,*39
$GPGSA,A,3,01,32,11,31,22,14,25,20,12,,,,1.8,1.0,1.5*3F
$GPZDA,170229.00,08,04,2014,00,00*62
$GPGGA,170229,3850.9781,N,10449.3598,W,1,09,1.00,1858.62,M,-21.660,M,,*4F
$GPRMC,170229,A,3850.9781,N,10449.3598,W,2.0277,11.201,080414,,*0C
$GPGSA,A,3,01,32,11,31,22,14,25,20,12,,,,1.8,1.0,1.5*3F
$GPGSV,3,1,09,01,38,285,35,32,62,316,37,11,26,253,36,31,75,172,38*7E
$GPGSV,3,2,09,14,39,058,37,22,27,127,35,25,23,069,32,12,07,036,21*7A
$GPGSV,3,3,09,20,23,309,34*4E
$GPZDA,170230.00,08,04,2014,00,00*6A
$GPGGA,170230,3850.9786,N,10449.3593,W,1,09,1.00,1857.67,M,-21.660,M,,*41
$GPRMC,170230,A,3850.9786,N,10449.3593,W,1.6286,7.804,080414,,*3B
$GPGSA,A,3,01,32,11,31,22,14,25,20,12,,,,1.8,1.0,1.5*3F
$GPZDA,170231.00,08,04,2014,00,00*6B
$GPGGA,170231,3850.9793,N,10449.3595,W,1,09,1.00,1857.54,M,-21.660,M,,*42
$GPRMC,170231,A,3850.9793,N,10449.3595,W,1.9566,4.661,080414,,*30
$GPGSA,A,3,01,32,11,31,22,14,25,20,12,,,,1.8,1.0,1.5*3F
$GPZDA,170232.00,08,04,2014,00,00*68
$GPGGA,170232,3850.9797,N,10449.3595,W,1,09,1.00,1858.17,M,-21.660,M,,*4D
$GPRMC,170232,A,3850.9797,N,10449.3595,W,1.7321,341.636,080414,,*3C
$GPGSA,A,3,01,32,11,31,22,14,25,20,12,,,,1.8,1.0,1.5*3F
$GPGSV,3,1,09,01,38,285,35,32,62,316,37,11,26,253,36,31,75,172,39*7F
$GPGSV,3,2,09,14,39,058,37,22,27,127,35,25,23,069,28,12,07,036,22*72
$GPGSV,3,3,09,20,23,309,34*4E
$GPZDA,170233.00,08,04,2014,00,00*69
$GPGGA,170233,3850.9800,N,10449.3603,W,1,09,1.00,1857.62,M,-21.660,M,,*4C
$GPRMC,170233,A,3850.9800,N,10449.3603,W,1.0289,299.989,080414,,*3B
$GPGSA,A,3,01,32,11,31,22,14,25,20,12,,,,1.8,1.0,1.5*3F
$GPZDA,170234.00,08,04,2014,00,00*6E
$GPGGA,170234,3850.9800,N,10449.3603,W,1,09,1.00,1857.62,M,-21.660,M,,*4B
$GPRMC,170234,A,3850.9800,N,10449.3603,W,1.1133,287.132,080414,,*38
$GPGSA,A,3,01,32,11,31,22,14,25,20,12,,,,1.8,1.0,1.5*3F
$GPZDA,170235.00,08,04,2014,00,00*6F
$GPGGA,170235,3850.9799,N,10449.3610,W,1,09,1.00,1857.82,M,-21.660,M,,*49
$GPRMC,170235,A,3850.9799,N,10449.3610,W,1.5349,272.268,080414,,*39
$GPGSA,A,3,01,32,11,31,22,14,25,20,12,,,,1.8,1.0,1.5*3F
$GPGSV,3,1,09,01,38,285,35,32,62,316,37,11,26,253,36,31,75,172,39*7F
$GPGSV,3,2,09,14,39,058,36,22,27,127,35,25,23,069,34,12,07,036,24*78
$GPGSV,3,3,09,20,23,309,34*4E
$GPZDA,170236.00,08,04,2014,00,00*6C
$GPGGA,170236,3850.9801,N,10449.3618,W,1,09,1.00,1857.26,M,-21.660,M,,*42
$GPRMC,170236,A,3850.9801,N,10449.3618,W,2.0697,273.604,080414,,*33
$GPGSA,A,3,01,32,11,31,22,14,25,20,12,,,,1.8,1.0,1.5*3F
$GPZDA,170237.00,08,04,2014,00,00*6D
$GPGGA,170237,3850.9800,N,10449.3625,W,1,09,1.00,1857.46,M,-21.660,M,,*4A
$GPRMC,170237,A,3850.9800,N,10449.3625,W,2.0902,278.788,080414,,*30
$GPGSA,A,3,01,32,11,31,22,14,25,20,12,,,,1.8,1.0,1.5*3F
$GPZDA,170238.00,08,04,2014,00,00*62
$GPGGA,170238,3850.9803,N,10449.3633,W,1,09,1.00,1856.91,M,-21.660,M,,*4A
$GPRMC,170238,A,3850.9803,N,10449.3633,W,2.3023,272.268,080414,,*33
$GPGSA,A,3,01,32,11,31,22,14,25,20,12,,,,1.8,1.0,1.5*3F
$GPGSV,3,1,09,01,38,285,36,32,62,316,37,11,26,253,35,31,75,172,38*7E
$GPGSV,3,2,09,14,39,058,37,22,27,127,35,25,23,069,34,12,07,036,29*74
$GPGSV,3,3,09,20,23,309,34*4E
$GPZDA,170239.00,08,04,2014,00,00*63
$GPGGA,170239,3850.9802,N,10449.3640,W,1,09,1.00,1857.11,M,-21.660,M,,*47
$GPRMC,170239,A,3850.9802,N,10449.3640,W,2.4896,263.439,080414,,*34
$GPGSA,A,3,01,32,11,31,22,14,25,20,12,,,,1.8,1.0,1.5*3F
$GPZDA,170240.00,08,04,2014,00,00*6D
$GPGGA,170240,3850.9801,N,10449.3647,W,1,09,1.00,1857.31,M,-21.660,M,,*4F
$GPRMC,170240,A,3850.9801,N,10449.3647,W,2.4896,263.439,080414,,*3E
$GPGSA,A,3,01,32,11,31,22,14,25,20,12,,,,1.8,1.0,1.5*3F
$GPZDA,170241.00,08,04,2014,00,00*6C
$GPGGA,170241,3850.9803,N,10449.3662,W,1,09,1.00,1856.95,M,-21.660,M,,*44
$GPRMC,170241,A,3850.9803,N,10449.3662,W,2.4896,263.439,080414,,*3A
$GPGSA,A,3,01,32,11,31,22,14,25,20,12,,,,1.8,1.0,1.5*3F
$GPGSV,3,1,09,01,38,285,36,32,62,316,37,11,26,253,36,31,75,172,38*7D
$GPGSV,3,2,09,14,39,058,36,22,27,127,35,25,23,069,35,12,07,036,29*74
$GPGSV,3,3,09,20,23,309,35*4F
$GPZDA,170242.00,08,04,2014,00,00*6F
$GPGGA,170242,3850.9802,N,10449.3669,W,1,09,1.00,1857.15,M,-21.660,M,,*44
$GPRMC,170242,A,3850.9802,N,10449.3669,W,2.4751,267.795,080414,,*36
$GPGSA,A,3,01,32,11,31,22,14,25,20,12,,,,1.8,1.0,1.5*3F
$GPZDA,170243.00,08,04,2014,00,00*6E
$GPGGA,170243,3850.9804,N,10449.3677,W,1,09,1.00,1856.60,M,-21.660,M,,*4F
$GPRMC,170243,A,3850.9804,N,10449.3677,W,2.5360,271.177,080414,,*34
$GPGSA,A,3,01,32,11,31,22,14,25,20,12,,,,1.8,1.0,1.5*3F
$GPZDA,170244.00,08,04,2014,00,00*69
$GPGGA,170244,3850.9803,N,10449.3684,W,1,09,1.00,1856.80,M,-21.660,M,,*4D
$GPRMC,170244,A,3850.9803,N,10449.3684,W,2.0036,269.507,080414,,*37
$GPGSA,A,3,01,32,11,31,22,14,25,20,12,,,,1.8,1.0,1.5*3F
$GPGSV,3,1,09,01,38,285,36,32,62,316,37,11,26,253,36,31,75,172,38*7D
$GPGSV,3,2,09,14,39,058,36,22,27,127,35,25,23,069,32,12,07,036,28*72
$GPGSV,3,3,09,20,23,309,35*4F
$GPZDA,170245.00,08,04,2014,00,00*68
$GPGGA,170245,3850.9802,N,10449.3690,W,1,09,1.00,1857.00,M,-21.660,M,,*41
$GPRMC,170245,A,3850.9802,N,10449.3690,W,2.0697,273.604,080414,,*34
$GPGSA,A,3,01,32,11,31,22,14,25,20,12,,,,1.8,1.0,1.5*3F
$GPZDA,170246.00,08,04,2014,00,00*6B
$GPGGA,170246,3850.9802,N,10449.3697,W,1,09,1.00,1857.20,M,-21.660,M,,*47
$GPRMC,170246,A,3850.9802,N,10449.3697,W,1.5367,246.513,080414,,*3F
$GPGSA,A,3,01,32,11,31,22,14,25,20,12,,,,1.8,1.0,1.5*3F
$GPZDA,170247.00,08,04,2014,00,00*6A
$GPGGA,170247,3850.9802,N,10449.3697,W,1,09,1.00,1857.20,M,-21.660,M,,*46
$GPRMC,170247,A,3850.9802,N,10449.3697,W,1.4371,230.713,080414,,*3B
$GPGSA,A,3,01,32,11,31,22,14,25,20,12,,,,1.8,1.0,1.5*3F
$GPGSV,3,1,09,01,38,285,36,32,62,316,37,11,26,253,36,31,75,172,38*7D
$GPGSV,3,2,09,14,39,058,36,22,27,127,35,25,23,069,33,12,07,036,29*72
$GPGSV,3,3,09,20,23,309,34*4E
$GPZDA,170248.00,08,04,2014,00,00*65
$GPGGA,170248,3850.9802,N,10449.3697,W,1,09,1.00,1857.20,M,-21.660,M,,*49
$GPRMC,170248,A,3850.9802,N,10449.3697,W,0.1892,180.000,080414,,*3B
$GPGSA,A,3,01,32,11,31,22,14,25,20,12,,,,1.8,1.0,1.5*3F
$GPZDA,170249.00,08,04,2014,00,00*64
$GPGGA,170249,3850.9797,N,10449.3697,W,1,09,1.00,1856.57,M,-21.660,M,,*4A
$GPRMC,170249,A,3850.9797,N,10449.3697,W,0.4205,135.051,080414,,*32
$GPGSA,A,3,01,32,11,31,22,14,25,20,12,,,,1.8,1.0,1.5*3F
$GPZDA,170250.00,08,04,2014,00,00*6C
$GPGGA,170250,3850.9797,N,10449.3697,W,1,09,1.00,1856.57,M,-21.660,M,,*42
$GPRMC,170250,A,3850.9797,N,10449.3697,W,1.2990,149.653,080414,,*35
$GPGSA,A,3,01,32,11,31,22,14,25,20,12,,,,1.8,1.0,1.5*3F
$GPGSV,3,1,09,01,38,285,36,32,62,316,37,11,26,253,36,31,75,172,39*7C
$GPGSV,3,2,09,14,39,058,36,22,27,127,36,25,23,069,34,12,07,036,25*7A
$GPGSV,3,3,09,20,23,309,34*4E
$GPZDA,170251.00,08,04,2014,00,00*6D
$GPGGA,170251,3850.9793,N,10449.3697,W,1,09,1.00,1855.94,M,-21.660,M,,*4B
$GPRMC,170251,A,3850.9793,N,10449.3697,W,1.9736,140.686,080414,,*38
$GPGSA,A,3,01,32,11,31,22,14,25,20,12,,,,1.8,1.0,1.5*3F
$GPZDA,170252.00,08,04,2014,00,00*6E
$GPGGA,170252,3850.9791,N,10449.3689,W,1,09,1.00,1856.49,M,-21.660,M,,*46
$GPRMC,170252,A,3850.9791,N,10449.3689,W,2.1865,150.471,080414,,*3F
$GPGSA,A,3,01,32,11,31,22,14,25,20,12,,,,1.8,1.0,1.5*3F
$GPZDA,170253.00,08,04,2014,00,00*6F
$GPGGA,170253,3850.9783,N,10449.3687,W,1,09,1.00,1856.62,M,-21.660,M,,*43
$GPRMC,170253,A,3850.9783,N,10449.3687,W,2.2793,144.841,080414,,*3C
$GPGSA,A,3,01,32,11,31,22,14,25,20,12,,,,1.8,1.0,1.5*3F
$GPGSV,3,1,09,01,38,285,36,32,62,316,37,11,26,253,36,31,75,172,39*7C
$GPGSV,3,2,09,14,39,058,36,22,27,127,37,25,23,069,35,12,07,036,28*77
$GPGSV,3,3,09,20,23,309,34*4E
$GPZDA,170254.00,08,04,2014,00,00*68
$GPGGA,170254,3850.9780,N,10449.3680,W,1,09,1.00,1855.79,M,-21.660,M,,*49
$GPRMC,170254,A,3850.9780,N,10449.3680,W,2.4365,147.404,080414,,*3A
$GPGSA,A,3,01,32,11,31,22,14,25,20,12,,,,1.8,1.0,1.5*3F
$GPZDA,170255.00,08,04,2014,00,00*69
$GPGGA,170255,3850.9772,N,10449.3678,W,1,09,1.00,1855.92,M,-21.660,M,,*47
$GPRMC,170255,A,3850.9772,N,10449.3678,W,2.5396,142.460,080414,,*3B
$GPGSA,A,3,01,32,11,31,22,14,25,20,12,,,,1.8,1.0,1.5*3F
$GPZDA,170256.00,08,04,2014,00,00*6A
$GPGGA,170256,3850.9766,N,10449.3670,W,1,09,1.00,1855.85,M,-21.660,M,,*4F
$GPRMC,170256,A,3850.9766,N,10449.3670,W,2.5228,135.051,080414,,*37
$GPGSA,A,3,01,32,11,31,22,14,25,20,12,,,,1.8,1.0,1.5*3F
$GPGSV,3,1,09,01,38,285,35,32,62,316,37,11,26,253,36,31,75,172,39*7F
$GPGSV,3,2,09,14,39,058,37,22,27,127,37,25,23,069,35,12,07,036,36*79
$GPGSV,3,3,09,20,23,309,34*4E
$GPZDA,170257.00,08,04,2014,00,00*6B
$GPGGA,170257,3850.9767,N,10449.3663,W,1,09,1.00,1855.65,M,-21.660,M,,*43
$GPRMC,170257,A,3850.9767,N,10449.3663,W,2.5484,127.668,080414,,*3A
$GPGSA,A,3,01,32,11,31,22,14,25,20,12,,,,1.8,1.0,1.5*3F
$GPZDA,170258.00,08,04,2014,00,00*64
$GPGGA,170258,3850.9759,N,10449.3661,W,1,09,1.00,1855.77,M,-21.660,M,,*40
$GPRMC,170258,A,3850.9759,N,10449.3661,W,2.3927,131.848,080414,,*33
$GPGSA,A,3,01,32,11,31,22,14,25,20,12,,,,1.8,1.0,1.5*3F
$GPZDA,170259.00,08,04,2014,00,00*65
$GPGGA,170259,3850.9760,N,10449.3655,W,1,09,1.00,1855.57,M,-21.660,M,,*4E
$GPRMC,170259,A,3850.9760,N,10449.3655,W,1.4017,140.524,080414,,*30
$GPGSA,A,3,01,32,11,31,22,14,25,20,12,,,,1.8,1.0,1.5*3F
$GPGSV,3,1,09,01,38,285,36,32,62,316,37,11,26,253,29,31,75,172,39*72
$GPGSV,3,2,09,14,39,058,37,22,27,127,37,25,23,069,35,12,07,036,31*7E
$GPGSV,3,3,09,20,23,309,35*4F
$GPZDA,170300.00,08,04,2014,00,00*68
$GPGGA,170300,3850.9760,N,10449.3655,W,1,09,1.00,1855.57,M,-21.660,M,,*43
$GPRMC,170300,A,3850.9760,N,10449.3655,W,0.1599,337.126,080414,,*3E
$GPGSA,A,3,01,32,11,31,22,14,25,20,12,,,,1.8,1.0,1.5*3F
$GPZDA,170301.00,08,04,2014,00,00*69
$GPGGA,170301,3850.9760,N,10449.3655,W,1,09,1.00,1855.57,M,-21.660,M,,*42
$GPRMC,170301,A,3850.9760,N,10449.3655,W,1.4414,8.826,080414,,*39
$GPGSA,A,3,01,32,11,31,22,14,25,20,12,,,,1.8,1.0,1.5*3F
$GPZDA,170302.00,08,04,2014,00,00*6A
$GPGGA,170302,3850.9768,N,10449.3657,W,1,09,1.00,1855.45,M,-21.660,M,,*48
$GPRMC,170302,A,3850.9768,N,10449.3657,W,2.3492,8.117,080414,,*31
$GPGSA,A,3,01,32,11,31,22,14,25,20,12,,,,1.8,1.0,1.5*3F
$GPGSV,3,1,09,01,38,285,36,32,62,316,37,11,26,253,36,31,75,172,39*7C
$GPGSV,3,2,09,14,39,058,38,22,27,127,37,25,23,069,35,12,07,036,31*71
$GPGSV,3,3,09,20,23,309,38*42
$GPZDA,170303.00,08,04,2014,00,00*6B
$GPGGA,170303,3850.9776,N,10449.3652,W,1,09,1.00,1855.12,M,-21.660,M,,*41
$GPRMC,170303,A,3850.9776,N,10449.3652,W,2.5367,7.514,080414,,*39
$GPGSA,A,3,01,32,11,31,22,14,25,20,12,,,,1.8,1.0,1.5*3F
$GPZDA,170304.00,08,04,2014,00,00*6C
$GPGGA,170304,3850.9780,N,10449.3652,W,1,09,1.00,1855.75,M,-21.660,M,,*4E
$GPRMC,170304,A,3850.9780,N,10449.3652,W,2.1452,4.250,080414,,*36
$GPGSA,A,3,01,32,11,31,22,14,25,20,12,,,,1.8,1.0,1.5*3F
$GPZDA,170305.00,08,04,2014,00,00*6D
$GPGGA,170305,3850.9788,N,10449.3653,W,1,09,1.00,1855.62,M,-21.660,M,,*40
$GPRMC,170305,A,3850.9788,N,10449.3653,W,1.8974,13.907,080414,,*02
$GPGSA,A,3,01,32,11,31,22,14,25,20,12,,,,1.8,1.0,1.5*3F
$GPGSV,3,1,09,01,38,285,36,32,62,316,38,11,26,253,36,31,75,172,39*73
$GPGSV,3,2,09,14,39,058,38,22,27,127,37,25,23,069,33,12,07,036,24*73
$GPGSV,3,3,09,20,23,309,30*4A
$GPZDA,170306.00,08,04,2014,00,00*6E
$GPGGA,170306,3850.9788,N,10449.3647,W,1,09,1.00,1855.43,M,-21.660,M,,*45
$GPRMC,170306,A,3850.9788,N,10449.3647,W,1.1112,52.152,080414,,*08
$GPGSA,A,3,01,32,11,31,22,14,25,20,12,,,,1.8,1.0,1.5*3F
$GPZDA,170307.00,08,04,2014,00,00*6F
$GPGGA,170307,3850.9788,N,10449.3647,W,1,09,1.00,1855.43,M,-21.660,M,,*44
$GPRMC,170307,A,3850.9788,N,10449.3647,W,0.7674,92.268,080414,,*0F
$GPGSA,A,3,01,32,11,31,22,14,25,20,12,,,,1.8,1.0,1.5*3F
$GPZDA,170308.00,08,04,2014,00,00*60
$GPGGA,170308,3850.9789,N,10449.3640,W,1,09,1.00,1855.23,M,-21.660,M,,*4B
$GPRMC,170308,A,3850.9789,N,10449.3640,W,1.7811,96.803,080414,,*09
$GPGSA,A,3,01,32,11,31,22,14,25,20,12,,,,1.8,1.0,1.5*3F
$GPGSV,3,1,09,01,38,285,34,32,62,316,31,11,26,253,36,31,75,172,38*79
$GPGSV,3,2,09,14,39,058,37,22,27,127,38,25,23,069,32,12,07,036,26*70
$GPGSV,3,3,09,20,23,309,26*4D
$GPZDA,170309.00,08,04,2014,00,00*61
$GPGGA,170309,3850.9787,N,10449.3632,W,1,09,1.00,1855.78,M,-21.660,M,,*4F
$GPRMC,170309,A,3850.9787,N,10449.3632,W,2.3176,96.948,080414,,*02
$GPGSA,A,3,01,32,11,31,22,14,25,20,12,,,,1.8,1.0,1.5*3F
$GPZDA,170310.00,08,04,2014,00,00*69
$GPGGA,170310,3850.9789,N,10449.3618,W,1,09,1.00,1855.38,M,-21.660,M,,*45
$GPRMC,170310,A,3850.9789,N,10449.3618,W,2.4419,104.633,080414,,*3E
$GPGSA,A,3,01,32,11,31,22,14,25,20,12,,,,1.8,1.0,1.5*3F
$GPGBS,170310,7.75,M,13.00,M,34.30,M*39
$GPZDA,170311.00,08,04,2014,00,00*68
$GPGGA,170311,3850.9785,N,10449.3612,W,1,09,1.00,1854.55,M,-21.660,M,,*48
$GPRMC,170311,A,3850.9785,N,10449.3612,W,2.3176,96.948,080414,,*0B
$GPGSA,A,3,01,32,11,31,22,14,25,20,12,,,,1.8,1.0,1.5*3F
$GPGBS,170311,7.75,M,13.00,M,34.30,M*38
$GPGSV,3,1,09,01,38,283,35,32,63,316,35,11,26,253,36,31,75,172,38*7B
$GPGSV,3,2,09,14,39,058,37,22,27,127,38,25,23,067,33,12,07,034,25*7E
$GPGSV,3,3,09,20,23,309,35*4F
$GPZDA,170312.00,08,04,2014,00,00*6B
$GPGGA,170312,3850.9783,N,10449.3603,W,1,09,1.00,1855.11,M,-21.660,M,,*4C
$GPRMC,170312,A,3850.9783,N,10449.3603,W,2.0902,98.788,080414,,*0A
$GPGSA,A,3,01,32,11,31,22,14,25,20,12,,,,1.8,1.0,1.5*3F
$GPZDA,170313.00,08,04,2014,00,00*6A
$GPGGA,170313,3850.9784,N,10449.3596,W,1,09,1.00,1854.91,M,-21.660,M,,*4C
$GPRMC,170313,A,3850.9784,N,10449.3596,W,1.5349,92.268,080414,,*01
$GPGSA,A,3,01,32,11,31,22,14,25,20,12,,,,1.8,1.0,1.5*3F
$GPZDA,170314.00,08,04,2014,00,00*6D
$GPGGA,170314,3850.9784,N,10449.3596,W,1,09,1.00,1854.91,M,-21.660,M,,*4B
$GPRMC,170314,A,3850.9784,N,10449.3596,W,0.5365,97.429,080414,,*0F
$GPGSA,A,3,01,32,11,31,22,14,25,20,12,,,,1.8,1.0,1.5*3F
$GPGSV,3,1,09,01,38,283,36,32,63,316,37,11,26,253,35,31,75,172,38*79
$GPGSV,3,2,09,14,39,058,37,22,27,127,38,25,23,067,34,12,07,034,20*7C
$GPGSV,3,3,09,20,23,309,36*4C
$GPZDA,170315.00,08,04,2014,00,00*6C
$GPGGA,170315,3850.9784,N,10449.3596,W,1,09,1.00,1854.91,M,-21.660,M,,*4A
$GPRMC,170315,A,3850.9784,N,10449.3596,W,0.2381,80.575,080414,,*0D
$GPGSA,A,3,01,32,11,31,22,14,25,20,12,,,,1.8,1.0,1.5*3F
$GPZDA,170316.00,08,04,2014,00,00*6F
$GPGGA,170316,3850.9784,N,10449.3596,W,1,09,1.00,1854.91,M,-21.660,M,,*49
$GPRMC,170316,A,3850.9784,N,10449.3596,W,0.1892,180.000,080414,,*32
$GPGSA,A,3,01,32,11,31,22,14,25,20,12,,,,1.8,1.0,1.5*3F
$GPGBS,170316,7.78,M,12.94,M,34.20,M*3F
